City_ID,City,Lat,Lng,Max Temp,Humidity,Cloudiness,Wind Speed,Country,Date
0,san patricio,28.017,-97.5169,32.97,48,21,6.15,US,1726775230
1,mossel bay,-34.1831,22.146,10.96,72,100,7.64,ZA,1726775231
2,port mathurin,-19.6833,63.4167,21.96,84,12,7.11,MU,1726775232
3,olonkinbyen,70.9221,-8.7187,1.39,74,100,10.69,SJ,1726775233
4,chongwe,-15.3292,28.682,24.32,22,0,1.43,ZM,1726775234
5,ujae,8.9322,165.7642,28.61,72,87,2.31,MH,1726775235
6,atbasar,51.8,68.3333,9.58,69,100,3.77,KZ,1726775236
7,ketchikan,55.3422,-131.6461,11.99,73,43,1.76,US,1726775237
8,grytviken,-54.2811,-36.5092,-0.42,67,80,5.86,GS,1726775238
9,aasiaat,68.7098,-52.8699,0.23,72,100,4.32,GL,1726775239
10,waitangi,-43.9535,-176.5597,12.12,96,69,2.24,NZ,1726775295
11,floro,61.5996,5.0328,13.98,94,3,3.09,NO,1726775296
12,waingapu,-9.6567,120.2641,25.03,83,67,1.49,ID,1726775297
13,mantenopolis,-18.8625,-41.1228,23.83,61,97,4.75,BR,1726775298
14,port-vila,-17.7338,168.3219,17.78,100,40,0.51,VU,1726775299
15,arteche,12.2645,125.4048,24.88,94,100,4.24,PH,1726775300
16,makinsk,52.6292,70.4169,7.82,75,20,3.11,KZ,1726775301
17,khandyga,62.6667,135.6,-3.07,95,54,1.54,RU,1726775302
18,cabo san lucas,22.8909,-109.9124,28.75,50,0,6.71,MX,1726775303
19,albany,42.6001,-73.9662,29.21,51,74,0.89,US,1726775247
20,namie,37.4833,141.0,24.99,86,91,2.54,JP,1726775306
21,lihue,21.9789,-159.3672,27.77,71,40,7.72,US,1726775307
22,bethel,41.3712,-73.414,28.7,54,75,1.79,US,1726775308
23,bambari,5.768,20.6757,22.43,96,100,1.49,CF,1726775309
24,tamanrasset,22.785,5.5228,28.95,28,40,2.06,DZ,1726775310
25,isafjordur,66.0755,-23.124,5.82,79,79,3.98,IS,1726775312
26,margaret river,-33.95,115.0667,11.48,69,89,3.98,AU,1726775313
27,naliya,23.2667,68.8333,26.38,81,0,6.06,IN,1726775314
28,port-aux-francais,-49.35,70.2167,3.49,78,81,11.69,TF,1726775315
29,minas de matahambre,22.5887,-83.9447,30.22,70,25,2.98,CU,1726775316
30,atafu village,-8.5421,-172.5159,27.62,73,6,2.54,TK,1726775317
31,adamstown,-25.066,-130.1015,20.92,76,81,2.82,PN,1726775318
32,papatowai,-46.5619,169.4708,5.24,68,10,3.41,NZ,1726775319
33,ribeira grande,38.5167,-28.7,23.22,53,20,4.63,PT,1726775320
34,west island,-12.1568,96.8225,24.99,78,100,5.14,CC,1726775321
35,hamilton,39.1834,-84.5333,34.24,38,40,3.6,US,1726775322
36,faya-largeau,17.9257,19.1043,37.66,17,3,3.92,TD,1726775323
37,wailua homesteads,22.0669,-159.378,27.44,73,40,7.72,US,1726775324
38,hermanus,-34.4187,19.2345,8.78,79,2,5.98,ZA,1726775325
39,puerto natales,-51.7236,-72.4875,8.25,49,75,6.17,CL,1726775162
40,port alfred,-33.5906,26.891,14.54,60,90,6.34,ZA,1726775327
41,invercargill,-46.4,168.35,6.12,72,32,2.24,NZ,1726775328
42,talnakh,69.4865,88.3972,1.83,99,100,2.82,RU,1726775329
43,chonchi,-42.6128,-73.8092,7.5,92,95,3.6,CL,1726775330
44,stanley,54.868,-1.6985,11.82,92,75,1.54,GB,1726775331
45,dryden,49.7833,-92.7503,21.16,88,100,3.09,CA,1726775334
46,hithadhoo,-0.6,73.0833,28.0,75,84,4.42,MV,1726775335
47,iqaluit,63.7506,-68.5145,2.85,81,100,4.63,CA,1726775337
48,selfoss,63.9331,-20.9971,5.58,76,100,1.35,IS,1726775338
49,edinburgh of the seven seas,-37.0676,-12.3116,14.57,84,89,13.32,SH,1726775339
50,oued el abtal,35.456,0.6878,20.57,66,0,0.52,DZ,1726775340
51,afaahiti,-17.75,-149.2833,24.45,83,39,5.56,PF,1726775317
52,yellowknife,62.456,-114.3525,15.23,67,20,3.09,CA,1726775342
53,coquimbo,-29.9533,-71.3436,18.85,64,0,6.69,CL,1726775343
54,nacala,-14.5428,40.6728,23.51,79,0,3.86,MZ,1726775344
55,bozoum,6.3193,16.3799,20.36,94,100,1.24,CF,1726775345
56,haiku-pauwela,20.9219,-156.3051,27.36,73,20,12.52,US,1726775346
57,alice springs,-23.7,133.8833,8.75,40,5,2.57,AU,1726775347
58,port elizabeth,-33.918,25.5701,12.4,81,20,1.79,ZA,1726775348
59,qaqortoq,60.7167,-46.0333,5.21,84,98,1.33,GL,1726775349
60,carnarvon,-24.8667,113.6333,19.59,79,1,10.13,AU,1726775350
61,yuzhno-kurilsk,44.0306,145.8556,14.41,74,100,6.53,RU,1726775351
62,nuuk,64.1835,-51.7216,6.34,81,100,2.57,GL,1726775352
63,tiksi,71.6872,128.8694,0.28,95,100,6.57,RU,1726775353
64,kodiak,57.79,-152.4072,12.73,54,0,0.33,US,1726775354
65,bonthe,7.5264,-12.505,25.5,88,100,3.45,SL,1726775130
66,zeya,53.75,127.2667,0.97,81,7,2.41,RU,1726775356
67,pandan,14.0453,124.1694,25.97,88,100,4.55,PH,1726775357
68,blackmans bay,-43.0167,147.3167,5.29,82,100,5.39,AU,1726775358
69,kendari,-3.945,122.4989,24.2,94,100,0.77,ID,1726775359
70,georgetown,5.4112,100.3354,26.96,88,20,1.54,MY,1726775360
71,vyshniy volochek,57.5913,34.5645,11.8,82,9,1.92,RU,1726775362
72,tokoroa,-38.2333,175.8667,9.79,97,100,2.05,NZ,1726775364
73,ilulissat,69.2167,-51.1,5.01,48,40,5.66,GL,1726775365
74,buka,40.8108,69.1986,17.15,39,72,1.98,UZ,1726775366
75,luderitz,-26.6481,15.1594,13.27,70,0,14.46,NA,1726775367
76,new norfolk,-42.7826,147.0587,5.95,84,100,3.74,AU,1726775368
77,labrador city,52.9463,-66.9114,20.1,36,20,3.6,CA,1726775112
78,gharaunda,29.5375,76.9717,25.32,88,0,1.22,IN,1726775370
79,plymouth,41.8334,-70.8328,20.08,93,100,2.24,US,1726775268
80,puerto ayora,-0.7393,-90.3518,21.55,74,97,5.54,EC,1726775373
81,iskateley,67.6803,53.1512,10.35,85,100,7.67,RU,1726775374
82,thompson,55.7435,-97.8558,20.09,88,75,1.54,CA,1726775103
83,lompoc,34.6391,-120.4579,21.96,70,20,2.06,US,1726775377
84,saint-pierre,-21.3393,55.4781,22.82,73,75,1.54,RE,1726775378
85,caconda,-13.7333,15.0667,19.99,41,5,2.87,AO,1726775379
86,vila velha,-20.3297,-40.2925,24.97,78,40,5.66,BR,1726775380
87,dakhla,23.6848,-15.958,21.01,94,0,6.17,EH,1726775381
88,vadso,70.0744,29.7487,11.09,87,20,6.69,NO,1726775383
89,bandarbeyla,9.4942,50.8122,24.72,88,27,6.9,SO,1726775384
90,constantia,44.1833,28.65,17.61,65,23,7.93,RO,1726775192
91,bilibino,68.0546,166.4372,-0.85,89,36,1.57,RU,1726775386
92,fortuna,40.5982,-124.1573,16.1,100,20,4.12,US,1726775387
93,gadzhiyevo,69.2551,33.3362,10.46,72,98,14.07,RU,1726775388
94,hawaiian paradise park,19.5933,-154.9731,24.94,88,100,1.54,US,1726775389
95,avarua,-21.2078,-159.775,25.03,69,98,1.54,CK,1726775390
96,pisco,-13.7,-76.2167,20.03,64,0,4.12,PE,1726775391
97,ciudad sabinas hidalgo,26.5,-100.1667,33.95,50,77,4.3,MX,1726775392
98,san sebastian de la gomera,28.0916,-17.1133,22.2,78,0,1.54,ES,1726775120
99,vorgashor,67.5833,63.95,7.0,88,94,2.56,RU,1726775394
100,dudinka,69.4058,86.1778,1.87,96,100,5.08,RU,1726775395
101,nuku'alofa,-21.1333,-175.2,19.19,88,20,1.54,TO,1726775396
102,aykhal,66.0,111.5,0.27,99,100,6.08,RU,1726775397
103,kingscliff,-28.2667,153.5667,10.89,93,83,1.54,AU,1726775398
104,jamestown,42.097,-79.2353,26.68,51,0,1.54,US,1726775358
105,tamiahua,21.2667,-97.45,30.9,70,14,4.01,MX,1726775400
106,st. john's,47.5649,-52.7093,13.87,96,100,3.6,CA,1726775401
107,tocopilla,-22.092,-70.1979,20.46,63,23,5.75,CL,1726775159
108,pospelikha,51.95,81.7667,8.14,72,98,2.88,RU,1726775403
109,udachny,66.4167,112.4,0.21,98,100,6.11,RU,1726775404
110,priozersk,61.0393,30.1291,14.97,98,18,2.9,RU,1726775405
111,tarakan,3.3,117.6333,27.74,78,100,4.97,ID,1726775406
112,ambovombe,-25.1667,46.0833,22.06,82,15,2.85,MG,1726775407
113,tosontsengel,48.7567,98.2839,-4.11,97,47,0.61,MN,1726775408
114,mut,36.6439,33.4389,24.63,54,93,1.17,TR,1726775409
115,college,64.8569,-147.8028,6.97,85,100,6.69,US,1726775410
116,yeppoon,-23.1333,150.7333,18.04,93,8,1.57,AU,1726775411
117,tadine,-21.55,167.8833,20.12,69,99,3.58,NC,1726775412
118,arraial do cabo,-22.9661,-42.0278,23.98,73,40,11.32,BR,1726775149
119,minas de marcona,-15.2119,-75.1103,15.17,65,14,8.69,PE,1726775415
120,hafar al-batin,28.4328,45.9708,31.32,18,0,2.06,SA,1726775416
121,lucapa,-8.4192,20.7447,20.05,83,72,0.21,AO,1726775417
122,petropavlovsk-kamchatsky,53.0452,158.6483,3.33,93,40,4.0,RU,1726775418
123,whitehorse,60.7161,-135.0538,8.23,90,75,1.03,CA,1726775419
124,ulcinj,41.9294,19.2244,15.55,78,91,4.0,ME,1726775420
125,nagqu,31.5,92.0,5.2,88,100,1.32,CN,1726775421
126,kristiansund,63.1115,7.732,13.36,88,75,1.54,NO,1726775323
127,east london,-33.0153,27.9116,15.5,52,100,6.45,ZA,1726775423
128,mirpur sakro,24.5474,67.6277,26.86,81,0,6.9,PK,1726775424
129,sechura,-5.5569,-80.8222,24.88,55,20,6.68,PE,1726775425
130,bubaque,11.2833,-15.8333,27.56,80,100,3.93,GW,1726775426
131,klyuchi,52.2667,79.1667,9.68,65,100,2.7,RU,1726775427
132,queenstown,-31.8976,26.8753,4.69,88,82,4.79,ZA,1726775428
133,bredasdorp,-34.5322,20.0403,8.36,91,11,3.08,ZA,1726775429
134,pangody,65.85,74.4859,7.73,92,100,2.12,RU,1726775430
135,rongelap,11.1635,166.8941,28.73,80,82,7.85,MH,1726775431
136,ushuaia,-54.8,-68.3,6.81,65,20,7.2,AR,1726775432
137,xique xique,-10.8217,-42.7311,30.21,37,0,1.1,BR,1726775433
138,longyearbyen,78.2186,15.6401,4.91,70,75,11.32,SJ,1726775434
139,sferracavallo,42.726,12.0956,15.91,89,67,2.46,IT,1726775435
140,pratt,37.6439,-98.7376,34.12,24,0,6.17,US,1726775400
141,gebeit,21.0667,36.3167,30.41,30,6,1.84,SD,1726775437
142,yamada,39.4667,141.95,19.51,95,100,2.64,JP,1726775438
143,okhotsk,59.3833,143.3,5.22,72,89,3.7,RU,1726775440
144,huadian,42.9633,126.7478,10.08,88,100,3.49,CN,1726775441
145,cabedelo,-6.9811,-34.8339,28.37,75,0,6.85,BR,1726775442
146,wattegama,6.7989,81.4808,25.61,70,100,3.39,LK,1726775240
147,westhill,57.1526,-2.2797,10.53,92,100,4.12,GB,1726775444
148,tazovsky,67.4667,78.7,5.16,80,100,2.89,RU,1726775445
149,camocim,-2.9022,-40.8411,28.81,59,4,10.48,BR,1726775446
150,dilling,12.05,29.65,24.66,67,12,2.84,SD,1726775447
151,prado,-17.3411,-39.2208,24.09,68,0,3.4,BR,1726775448
152,ilha de mocambique,-15.0342,40.7358,24.71,78,0,6.32,MZ,1726775449
153,ta`u,-14.2336,-169.5144,26.56,73,16,5.59,AS,1726775450
154,itumba,-9.4,33.1833,17.87,46,6,2.66,TZ,1726775451
155,san pedro pochutla,15.7333,-96.4667,33.17,57,35,3.61,MX,1726775452
156,mount gambier,-37.8333,140.7667,9.77,82,100,3.13,AU,1726775455
157,sierra grande,-41.606,-65.3557,16.85,37,98,10.76,AR,1726775456
158,keflavik,64.0049,-22.5624,6.24,81,75,3.09,IS,1726775457
159,saint-joseph,-21.3667,55.6167,22.21,82,26,4.4,RE,1726775458
160,trairi,-3.2778,-39.2689,26.59,68,5,5.8,BR,1726775459
161,vila franca do campo,37.7167,-25.4333,22.23,81,63,3.3,PT,1726775460
162,mount pearl,47.5166,-52.7813,13.41,97,100,3.6,CA,1726775261
163,uturoa,-16.7333,-151.4333,26.48,78,3,3.51,PF,1726775462
164,al hufuf,25.3646,49.5653,31.19,22,0,1.54,SA,1726775463
165,chibougamau,49.9168,-74.3659,17.79,94,75,3.6,CA,1726775464
166,sinabang,2.4803,96.3801,25.05,86,100,1.6,ID,1726775465
167,ust-nera,64.5667,143.2,-1.52,90,46,2.21,RU,1726775466
168,anadyr,64.75,177.4833,7.28,87,40,2.68,RU,1726775467
169,enewetak,11.3474,162.3373,28.61,79,46,6.4,MH,1726775468
170,tromso,69.6496,18.957,9.01,76,75,9.77,NO,1726775469
171,la passe,45.5549,-0.8967,20.56,56,100,3.31,FR,1726775470
172,shimoda,34.6667,138.95,27.06,92,100,5.37,JP,1726775471
173,arkhangel'sk,64.5401,40.5433,14.06,82,40,4.0,RU,1726775473
174,ylitornio,66.3089,23.6773,13.67,68,100,4.48,FI,1726775474
175,dickinson,29.4608,-95.0513,35.57,66,40,4.63,US,1726775475
176,san-pedro,4.7485,-6.6363,23.98,92,93,3.15,CI,1726775476
177,san ignacio de velasco,-16.3667,-60.95,39.42,13,94,4.89,BO,1726775477
178,fale old settlement,-9.3852,-171.2468,27.78,76,33,4.45,TK,1726775478
179,sao joao da barra,-21.6403,-41.0511,25.05,73,1,7.56,BR,1726775479
180,veraval,20.9,70.3667,26.21,81,0,4.45,IN,1726775480
181,bingol,38.8847,40.4939,16.35,77,100,1.27,TR,1726775482
182,east ballina,-28.8667,153.5833,14.92,46,0,3.9,AU,1726775483
183,camana,-16.6228,-72.7111,16.97,79,37,4.77,PE,1726775484
184,alta,69.9689,23.2717,11.59,67,75,7.72,NO,1726775439
185,weno,7.4515,151.8468,24.97,88,100,2.06,FM,1726775487
186,aur,8.1499,171.1687,28.57,74,62,4.71,MH,1726775489
187,punta arenas,-53.15,-70.9167,7.06,57,0,10.29,CL,1726775446
188,pico truncado,-46.7949,-67.9573,11.2,54,92,6.07,AR,1726775355
189,rodino,52.5,80.25,9.44,72,100,3.09,RU,1726775492
190,la sarre,48.8002,-79.1996,25.68,43,79,2.22,CA,1726775494
191,badger,64.8,-147.5333,7.14,91,100,6.69,US,1726775390
192,pil'na,55.5539,45.9219,11.15,83,45,2.69,RU,1726775496
193,banff,51.1762,-115.5698,17.21,34,90,3.09,CA,1726775497
194,mary,37.0,62.5,19.15,28,28,4.5,TM,1726775498
195,caxito,-8.5785,13.6643,22.76,84,79,2.55,AO,1726775499
196,hammerfest,70.6634,23.6821,9.25,81,75,13.38,NO,1726775500
197,fuglafjordur,62.244,-6.814,10.12,88,74,0.44,FO,1726775501
198,ringkobing,56.0901,8.244,14.99,72,0,2.57,DK,1726775502
199,tyuratam,45.6507,63.3156,14.96,56,2,4.2,KZ,1726775503
200,malabar,-33.9667,151.25,13.77,53,0,4.12,AU,1726775504
201,vieira de leiria,39.8695,-8.9324,20.06,83,40,2.06,PT,1726775505
202,takoradi,4.8845,-1.7554,24.24,91,38,3.36,GH,1726775506
203,manaus,-3.1019,-60.025,35.28,46,20,3.6,BR,1726775507
204,clarence town,-32.5833,151.7833,11.95,43,0,1.72,AU,1726775509
205,contes,43.8128,7.3144,18.54,42,20,2.06,FR,1726775510
206,orivesi,61.6777,24.3572,11.53,12,53,3.13,FI,1726775511
207,vilyuysk,63.7553,121.6247,-4.57,93,73,2.03,RU,1726775512
208,vilyuchinsk,52.9306,158.4028,4.15,86,27,3.22,RU,1726775513
209,prince rupert,54.3161,-130.3201,11.83,97,100,4.12,CA,1726775515
210,santiago de cao,-7.9589,-79.2392,18.07,77,10,6.17,PE,1726775516
211,corfu,39.62,19.9197,20.1,94,40,1.03,GR,1726775249
212,vernon,50.2581,-119.2691,20.97,52,90,1.03,CA,1726775518
213,saint-ave,47.6833,-2.75,16.65,77,0,2.06,FR,1726775519
214,dubbo,-32.25,148.6167,2.07,80,0,1.54,AU,1726775520
215,alesund,62.4723,6.1549,14.86,90,5,1.01,NO,1726775521
216,coahuayana de hidalgo,18.7,-103.6583,31.05,72,63,2.67,MX,1726775522
217,labuan,5.2767,115.2417,27.2,94,20,0.0,MY,1726775524
218,la ronge,55.1001,-105.2842,13.14,94,100,7.72,CA,1726775525
219,sindhnur,15.7833,76.7667,25.51,68,99,5.49,IN,1726775528
220,crotone,39.0851,17.1178,22.72,52,99,4.36,IT,1726775529
221,shiprock,36.7855,-108.687,25.21,22,99,2.48,US,1726775530
222,sitka,57.0531,-135.33,11.94,82,100,0.0,US,1726775531
223,masterton,-40.9597,175.6575,11.23,71,100,3.9,NZ,1726775532
224,ancud,-41.8697,-73.8203,8.64,84,94,7.87,CL,1726775533
225,palmer,42.1584,-72.3287,28.97,39,75,7.2,US,1726775534
226,nicoya,10.1483,-85.452,27.54,85,99,1.41,CR,1726775535
227,mariinsk,56.2139,87.7472,7.45,93,17,1.42,RU,1726775536
228,belmonte,-15.8631,-38.8828,24.48,71,1,3.12,BR,1726775537
229,vangaindrano,-23.35,47.6,20.27,94,12,2.79,MG,1726775538
230,phan rang-thap cham,11.5667,108.9833,24.96,83,89,2.44,VN,1726775539
231,tubarjal,30.4999,38.216,25.95,46,0,7.16,SA,1726775541
232,urangan,-25.3,152.9,19.48,89,11,5.71,AU,1726775542
233,bardai,11.65,7.2333,23.34,86,34,3.66,NG,1726775544
234,chingirlau,51.095,54.0814,11.7,39,9,1.67,KZ,1726775545
235,maqat,47.65,53.3167,14.8,24,0,3.1,KZ,1726775546
236,bamboo flat,11.7,92.7167,26.05,89,100,3.09,IN,1726775547
237,monchegorsk,67.9397,32.8739,12.6,70,55,5.8,RU,1726775549
238,tobelo,1.7284,128.0095,27.16,83,100,4.3,ID,1726775550
239,akdepe,42.0551,59.3788,15.81,58,1,2.54,TM,1726775552
240,bakshwaho,24.25,79.3,22.9,88,100,1.75,IN,1726775553
241,gdov,58.7406,27.8122,12.72,79,32,1.4,RU,1726775554
242,kittila,67.6647,24.8936,15.08,55,0,4.63,FI,1726775555
243,greenwood,34.1668,-82.1165,28.22,62,75,3.6,US,1726775556
244,antonio enes,-16.2325,39.9086,24.54,77,0,5.97,MZ,1726775557
245,palikir - national government center,6.9248,158.1611,24.41,100,100,0.0,FM,1726775558
246,saint-philippe,-21.3585,55.7679,22.04,85,49,5.69,RE,1726775559
247,sinop,41.7711,34.8709,13.03,85,100,1.5,TR,1726775560
248,nar'yan-mar,67.6713,53.087,10.36,85,100,7.7,RU,1726775561
249,mejit,10.2753,170.8646,27.95,80,100,8.03,MH,1726775562
250,balezino,57.9796,53.0106,10.98,96,89,3.19,RU,1726775563
251,port shepstone,-30.7414,30.455,16.53,62,100,11.34,ZA,1726775564
252,faaa,-17.55,-149.6,27.98,78,0,7.6,PF,1726775566
253,nantucket,41.2835,-70.0995,18.06,94,100,18.41,US,1726775424
254,barranca,-10.75,-77.7667,18.55,73,21,5.36,PE,1726775569
255,malango,-2.9627,119.9001,17.93,95,99,1.14,ID,1726775570
256,smara,26.7384,-11.6719,25.65,54,100,9.24,EH,1726775571
257,biograd na moru,43.9433,15.4519,18.39,77,93,2.16,HR,1726775366
258,dhidhdhoo,6.8833,73.1,27.18,80,3,5.1,MV,1726775574
259,solikamsk,59.6196,56.7729,11.25,98,100,1.51,RU,1726775575
260,bichura,50.5881,107.6022,0.83,87,5,0.56,RU,1726775576
261,crane,31.3974,-102.3501,35.58,27,32,8.14,US,1726775577
262,semenov,56.7875,44.493,14.58,62,99,3.61,RU,1726775578
263,geraldton,-28.7667,114.6,10.23,93,0,2.57,AU,1726775579
264,ingeniero jacobacci,-41.3427,-69.5448,10.16,42,84,18.72,AR,1726775580
265,tashtyp,52.7939,89.8983,3.91,93,0,0.52,RU,1726775581
266,kununurra,-15.7667,128.7333,23.99,83,100,1.54,AU,1726775477
267,quellon,-43.1167,-73.6167,8.49,86,92,6.57,CL,1726775583
268,colonia,50.9333,6.95,18.86,76,20,2.57,DE,1726775584
269,kudahuvadhoo,2.6708,72.8944,28.13,75,13,4.69,MV,1726775585
270,mili,6.0815,171.735,27.91,78,49,8.21,MH,1726775586
271,saipan,15.1355,145.701,28.39,89,75,3.6,MP,1726775587
272,el alto,-4.2714,-81.2147,19.97,71,18,8.03,PE,1726775588
273,nemuro,43.3236,145.575,15.39,77,100,8.35,JP,1726775589
274,formello,42.0801,12.3998,16.03,86,0,0.43,IT,1726775590
275,solnechnyy,50.7214,136.6319,5.02,79,100,1.42,RU,1726775591
276,utrik,11.2278,169.8474,28.0,82,100,8.03,MH,1726775592
277,el porvenir,13.7617,-87.3458,31.01,62,44,2.79,HN,1726775388
278,tura,25.5198,90.2201,25.93,84,8,1.1,IN,1726775594
279,anshun,26.25,105.9333,18.5,85,57,2.62,CN,1726775595
280,ulanhot,46.0833,122.0833,10.43,54,100,2.25,CN,1726775597
281,hadibu,12.65,54.0333,24.71,90,25,0.6,YE,1726775598
282,rabo de peixe,37.8,-25.5833,21.73,73,75,1.03,PT,1726775599
283,kirensk,57.7853,108.1119,5.13,83,99,2.84,RU,1726775600
284,lebu,-37.6167,-73.65,11.69,92,50,5.54,CL,1726775601
285,puerto deseado,-47.7503,-65.8938,6.41,94,100,8.11,AR,1726775342
286,contamana,-7.3333,-75.0167,41.08,17,8,2.06,PE,1726775603
287,puerto baquerizo moreno,-0.9,-89.6,23.55,69,75,7.2,EC,1726775447
288,gunnedah,-30.9833,150.25,7.19,41,0,0.31,AU,1726775605
289,konkwesso,10.8469,4.0984,24.13,91,86,1.89,NG,1726775606
290,hotan,37.0997,79.9269,23.5,26,87,2.18,CN,1726775607
291,kaele,10.1092,14.4508,24.49,83,90,2.65,CM,1726775608
292,nanao,37.05,136.9667,23.37,94,100,2.34,JP,1726775609
293,trincomalee,8.5711,81.2335,27.16,78,48,10.15,LK,1726775610
294,caraballeda,10.6112,-66.8522,33.04,66,40,2.06,VE,1726775611
295,broken hill,-31.95,141.4333,6.09,88,0,3.24,AU,1726775612
296,san rafael,-34.6177,-68.3301,24.56,5,0,11.94,AR,1726775414
297,kingston,17.997,-76.7936,33.53,62,20,10.8,JM,1726775461
298,macau,22.2006,113.5461,27.85,89,20,2.57,MO,1726775615
299,saldanha,-33.0117,17.9442,12.03,67,2,11.36,ZA,1726775616
300,baiti,13.745,-14.7482,25.38,86,98,3.03,SN,1726775617
301,san antonio de pale,-1.4014,5.6325,24.95,81,86,5.35,GQ,1726775618
302,newport,51.5877,-2.9984,18.03,84,7,7.16,GB,1726775619
303,gilmer,32.7287,-94.9424,32.1,45,0,0.0,US,1726775462
304,dunedin,-45.8742,170.5036,9.33,59,61,1.79,NZ,1726775621
305,jiangzi,28.95,89.6333,6.16,70,98,0.98,CN,1726775622
306,brookings,44.3114,-96.7984,26.73,45,0,9.26,US,1726775624
307,general toshevo,43.7,28.0333,16.18,91,65,1.79,BG,1726775625
308,viedma,-40.8135,-62.9967,22.02,26,1,12.25,AR,1726775626
309,port lincoln,-34.7333,135.8667,11.57,82,55,4.85,AU,1726775627
310,fort mcmurray,56.7268,-111.381,17.77,51,100,2.06,CA,1726775628
311,isola di capo rizzuto,38.96,17.0933,23.52,57,100,6.08,IT,1726775629
312,sisimiut,66.9395,-53.6735,5.29,64,100,2.14,GL,1726775630
313,gasteiz / vitoria,42.85,-2.6667,18.86,67,20,0.0,ES,1726775631
314,fort st. john,56.2499,-120.8529,13.94,47,75,4.63,CA,1726775567
315,orcopampa,-15.2661,-72.3417,16.3,27,99,6.5,PE,1726775633
316,sabaneta,6.15,-75.6,27.04,44,40,4.92,CO,1726775634
317,morondava,-20.2833,44.2833,24.08,88,0,3.38,MG,1726775635
318,villa del carbon,19.7272,-99.4683,20.45,62,55,2.29,MX,1726775636
319,bargaal,11.2864,51.0773,26.38,77,7,3.28,SO,1726775637
320,pearsall,28.8922,-99.095,34.65,43,63,4.61,US,1726775638
321,kerikeri,-35.2268,173.9474,14.39,85,91,2.68,NZ,1726775639
322,cidade velha,14.9167,-23.6167,28.26,74,75,6.17,CV,1726775640
323,praia da vitoria,38.7333,-27.0667,22.64,78,75,5.11,PT,1726775641
324,katsuura,35.1333,140.3,26.88,94,43,3.47,JP,1726775642
325,rio verde de mato grosso,-18.9181,-54.8442,38.91,15,68,7.65,BR,1726775643
326,yemva,62.59,50.8594,7.77,97,8,1.77,RU,1726775644
327,prien,30.1819,-93.2738,33.99,57,40,3.6,US,1726775645
328,masjed soleyman,31.9364,49.3039,29.86,19,0,0.96,IR,1726775646
329,barano d'ischia,40.718,13.9309,20.17,85,0,4.47,IT,1726775647
330,hyesan,41.4017,128.1778,16.82,98,100,1.03,KP,1726775648
331,axim,4.8699,-2.2405,24.03,93,25,3.03,GH,1726775650
332,mezhdurechenskiy,59.6,65.9333,11.72,94,30,2.42,RU,1726775651
333,zhangye,38.9342,100.4517,13.85,76,93,1.6,CN,1726775652
334,illizi,26.4833,8.4667,32.39,31,83,2.89,DZ,1726775653
335,taro,-8.3862,115.28,18.31,97,100,0.69,ID,1726775654
336,north bend,43.4065,-124.2243,18.42,88,40,9.26,US,1726775655
337,midvagur,62.0511,-7.1939,10.46,100,100,2.57,FO,1726775656
338,salalah,17.0151,54.0924,26.05,83,0,1.54,OM,1726775657
339,tshikapa,-6.4167,20.8,23.66,82,8,2.17,CD,1726775658
340,guadix,37.2993,-3.1392,17.39,64,80,1.07,ES,1726775659
341,sidi bennour,32.6524,-8.4277,20.28,67,52,3.58,MA,1726775660
342,west bay,19.3667,-81.4167,33.04,62,40,4.12,KY,1726775661
343,kyotera,-0.6156,31.5175,19.83,75,57,2.8,UG,1726775662
344,vangviang,18.9333,102.45,21.57,92,100,0.23,LA,1726775663
345,las tablas,7.7667,-80.2833,26.76,99,100,2.33,PA,1726775664
346,turpan,42.9333,89.1667,23.74,17,0,2.23,CN,1726775665
347,miles city,46.4083,-105.8406,22.54,40,0,8.75,US,1726775666
348,novyy urengoy,66.0833,76.6333,7.15,86,100,1.53,RU,1726775667
349,harda khas,22.3333,77.1,24.0,89,100,2.26,IN,1726775668
350,jiangmen,22.5833,113.0833,27.1,81,99,0.62,CN,1726775669
351,turan,16.0678,108.2208,26.99,94,40,0.51,VN,1726775670
352,makhambet,47.6667,51.5833,15.94,24,0,3.64,KZ,1726775672
353,kapit,2.0167,112.9333,23.37,85,100,0.6,MY,1726775673
354,mahanoro,-19.9,48.8,20.43,92,22,2.47,MG,1726775675
355,huarmey,-10.0681,-78.1522,20.08,71,3,5.7,PE,1726775676
356,bambanglipuro,-7.95,110.2833,24.06,77,99,0.75,ID,1726775677
357,tofol,5.3248,163.0078,28.68,73,90,3.39,FM,1726775678
358,fort bragg,35.139,-79.006,28.15,72,40,2.57,US,1726775679
359,santona,43.4439,-3.4576,19.48,89,32,1.58,ES,1726775680
360,jasper,37.2001,-94.3502,37.27,45,40,6.69,US,1726775675
361,novodvinsk,64.4165,40.8122,13.86,67,100,3.68,RU,1726775682
362,ndele,8.4109,20.6473,21.89,96,37,1.25,CF,1726775683
363,sulak,43.2734,47.5146,19.01,57,34,6.35,RU,1726775684
364,charlestown,-32.95,151.6667,12.07,55,0,3.08,AU,1726775451
365,asau,46.4333,26.4,9.78,66,23,3.44,RO,1726775444
366,nizhneangarsk,55.7833,109.55,2.47,70,17,1.67,RU,1726775687
367,czaplinek,53.5578,16.2333,16.19,59,0,3.06,PL,1726775688
368,tazacorte,28.629,-17.9293,22.54,93,75,1.79,ES,1726775689
369,walvis bay,-22.9575,14.5053,13.53,76,0,2.06,NA,1726775690
370,kayangel,8.0823,134.7173,28.21,71,100,1.71,PW,1726775691
371,ostersund,63.1792,14.6357,14.25,81,0,2.57,SE,1726775692
372,guigue,10.0853,-67.7792,30.55,56,10,4.84,VE,1726775693
373,mora,11.0461,14.1401,25.59,75,100,1.79,CM,1726775694
374,san lorenzo cacaotepec,17.1333,-96.8,25.67,60,81,1.34,MX,1726775695
375,mandalgovi,45.7625,106.2708,2.95,92,100,3.34,MN,1726775696
376,touba,8.2833,-7.6833,22.3,92,36,0.63,CI,1726775697
377,nguigmi,14.2495,13.1092,32.89,45,10,1.82,NE,1726775698
378,jinghong,21.991,100.7341,21.44,78,10,1.38,CN,1726775699
379,baoying,33.2292,119.3092,26.08,94,69,5.48,CN,1726775700
380,khanty-mansiysk,61.0042,69.0019,11.06,100,0,2.0,RU,1726775701
381,sao felix do xingu,-6.6447,-51.995,39.58,15,50,2.43,BR,1726775608
382,penhalonga,-18.8911,32.6978,19.14,22,0,1.37,ZW,1726775704
383,campoverde,-8.4753,-74.8058,35.83,20,0,1.5,PE,1726775705
384,tiquipaya,-17.3382,-66.2189,29.4,16,75,2.06,BO,1726775706
385,kupang,-10.1667,123.5833,26.32,94,20,2.57,ID,1726775707
386,beni saf,35.301,-1.3823,24.09,60,5,3.22,DZ,1726775708
387,orhei,47.3831,28.8231,14.77,29,22,2.83,MD,1726775710
388,simanggang,1.2472,111.4528,25.01,94,92,1.03,MY,1726775711
389,limon,10.0,-83.0333,28.94,84,0,1.54,CR,1726775591
390,copala,16.65,-98.9833,30.53,64,96,3.35,MX,1726775713
391,umluj,25.0213,37.2685,29.51,66,0,3.93,SA,1726775714
392,acajutla,13.5928,-89.8275,29.86,73,67,2.55,SV,1726775715
393,los palacios y villafranca,37.1618,-5.9243,23.36,74,100,4.27,ES,1726775716
394,san borja,-14.8167,-66.85,40.53,18,17,3.95,BO,1726775717
395,laojunmiao,39.8333,97.7333,13.11,64,0,2.0,CN,1726775718
396,mermoz boabab,14.7065,-17.4758,27.88,74,40,5.14,SN,1726775420
397,putina,-15.4667,-69.4333,13.8,46,25,6.29,PE,1726775721
398,zaozersk,69.4005,32.4476,9.52,69,100,15.25,RU,1726775722
399,puri,19.8,85.85,28.41,78,100,1.8,IN,1726775723
400,pokhara,28.2333,83.9833,22.19,76,0,1.91,NP,1726775724
401,antsiranana,-12.2787,49.2917,22.96,79,6,7.05,MG,1726775725
402,gornopravdinsk,60.05,69.9,11.56,97,33,2.55,RU,1726775726
403,maceio,-9.6658,-35.7353,27.69,65,40,6.17,BR,1726775531
404,tangalle,6.024,80.7911,25.63,85,100,5.53,LK,1726775728
405,mafeteng,-29.823,27.2374,7.27,61,2,3.72,LS,1726775729
406,barwadih,23.8333,84.1167,24.41,88,38,0.99,IN,1726775730
407,patong,7.8961,98.2966,27.08,99,86,8.94,TH,1726775731
408,mossendjo,-2.9506,12.7261,22.68,83,100,1.94,CG,1726775732
409,lorengau,-2.0226,147.2712,27.23,83,33,3.71,PG,1726775733
410,puerto leguizamo,-0.1934,-74.7819,34.77,43,63,0.49,CO,1726775734
411,trinidad,-14.8333,-64.9,36.99,36,20,5.14,BO,1726775735
412,nova xavantina,-14.6667,-52.35,37.09,19,95,2.91,BR,1726775736
413,christchurch,-43.5333,172.6333,6.29,89,0,1.54,NZ,1726775737
414,rio claro,-22.4114,-47.5614,26.11,53,48,5.01,BR,1726775738
415,gomez farias,23.05,-99.15,29.56,65,8,3.01,MX,1726775740
416,flying fish cove,-10.4217,105.6791,23.82,83,20,4.63,CX,1726775741
417,yelizovo,53.1873,158.3805,4.08,93,40,4.0,RU,1726775742
418,puerto rico,-26.796,-55.024,36.44,28,0,3.46,AR,1726775744
419,guerrero negro,27.9769,-114.0611,22.18,54,0,6.14,MX,1726775745
420,venev,54.3553,38.2684,12.61,69,86,3.41,RU,1726775746
421,safaga,26.7292,33.9365,32.74,38,0,10.28,EG,1726775747
422,likiep,9.8251,169.3107,28.76,76,99,6.14,MH,1726775748
423,aioun,16.6614,-9.6149,32.81,44,100,4.57,MR,1726775750
424,tilisarao,-32.7329,-65.2911,28.69,3,0,7.58,AR,1726775751
425,egilsstadir,65.2653,-14.3948,5.95,81,0,4.12,IS,1726775752
426,taltal,-25.4,-70.4833,19.33,57,30,1.6,CL,1726775753
427,dharmavaram,14.4333,77.7167,27.71,59,100,5.24,IN,1726775754
428,chelak,39.9203,66.8611,16.42,28,31,1.97,UZ,1726775755
429,kamaishi,39.2667,141.8833,20.95,94,100,3.82,JP,1726775756
430,port augusta,-32.5,137.7667,5.94,85,0,1.0,AU,1726775757
431,kovernino,57.1253,43.8142,13.13,66,82,3.77,RU,1726775758
432,sinan,34.8262,126.1086,25.76,86,100,9.54,KR,1726775759
433,tafuna,-14.3358,-170.72,27.97,74,75,5.14,AS,1726775760
434,namdrik,5.5994,168.1028,26.96,82,100,6.67,MH,1726775761
435,nyrob,60.733,56.7202,10.95,96,100,2.97,RU,1726775762
436,klaksvik,62.2266,-6.589,10.74,87,73,0.37,FO,1726775763
437,rusape,-18.5278,32.1284,17.62,25,0,3.39,ZW,1726775764
438,brisas de zicatela,15.8369,-97.0419,30.97,66,83,3.52,MX,1726775765
439,general roca,-39.0333,-67.5833,19.96,23,24,16.37,AR,1726775766
440,tutayev,57.8853,39.5406,11.19,80,17,2.25,RU,1726775768
441,basco,20.4487,121.9702,27.57,83,100,5.31,PH,1726775769
442,primero de mayo,-32.2552,-58.4228,28.23,44,53,0.81,AR,1726775770
443,prairie view,30.0933,-95.9877,36.02,54,0,3.86,US,1726775488
444,kidal,18.4411,1.4078,29.82,50,34,5.65,ML,1726775772
445,golere,16.2557,-14.1017,32.78,46,85,2.11,SN,1726775773
446,jiutai,44.1525,125.8328,9.19,82,100,4.29,CN,1726775775
447,codrington,-38.2667,141.9667,9.54,82,54,6.03,AU,1726775776
448,castillos,-34.1667,-53.8333,16.07,98,100,4.76,UY,1726775777
449,siwa oasis,29.2041,25.5195,35.24,21,7,2.96,EG,1726775778
450,bodo,67.28,14.405,10.02,88,75,10.29,NO,1726775779
451,guatire,10.4762,-66.5427,27.53,77,89,0.85,VE,1726775586
452,tottori,35.5,134.2333,25.86,85,94,3.85,JP,1726775781
453,port isabel,26.0734,-97.2086,34.02,79,40,7.2,US,1726775782
454,inverloch,-38.6333,145.7167,9.32,84,76,8.76,AU,1726775779
455,grand falls-windsor,48.9332,-55.6649,13.06,88,100,1.34,CA,1726775784
456,tanjung selor,2.8372,117.3642,24.29,99,100,0.75,ID,1726775785
457,celestun,20.8667,-90.4,31.82,66,8,6.38,MX,1726775786
458,kuressaare,58.2481,22.5039,12.19,93,11,1.54,EE,1726775787
459,mount isa,-20.7333,139.5,10.87,43,4,1.54,AU,1726775788
460,lulea,65.5842,22.1547,18.04,59,0,4.63,SE,1726775789
461,mersa matruh,31.3525,27.2453,29.11,58,40,2.57,EG,1726775791
462,necochea,-38.5473,-58.7368,11.25,96,100,3.86,AR,1726775725
463,karratha,-20.7377,116.8463,26.0,44,37,2.54,AU,1726775793
464,burg auf fehmarn,54.4333,11.2,16.42,92,2,8.98,DE,1726775794
465,ballina,-28.8667,153.5667,14.92,46,0,3.9,AU,1726775795
466,pimenta bueno,-11.6725,-61.1936,41.2,12,5,2.81,BR,1726775796
467,callao,-12.0667,-77.15,18.16,72,75,5.14,PE,1726775542
468,nogliki,51.8333,143.1667,4.69,82,100,1.53,RU,1726775798
469,erenhot,43.6475,111.9767,7.66,84,100,6.55,CN,1726775799
470,tindouf,27.6711,-8.1474,30.25,42,40,2.06,DZ,1726775800
471,nha trang,12.25,109.1833,29.0,84,46,2.67,VN,1726775801
472,port saint john's,-31.6229,29.5448,14.86,71,100,6.2,ZA,1726775802
473,morehead city,34.7229,-76.726,24.03,90,30,0.89,US,1726775803
474,happy valley-goose bay,53.3168,-60.3315,14.17,77,75,4.63,CA,1726775805
475,kuala terengganu,5.3302,103.1408,24.97,100,20,1.54,MY,1726775806
476,son tay,21.1378,105.505,24.03,95,100,2.49,VN,1726775807
477,saudarkrokur,65.7461,-19.6394,5.24,80,100,4.51,IS,1726775808
478,forster,-32.1667,152.5167,12.57,43,0,3.53,AU,1726775809
479,levuka,50.1834,-105.4011,13.85,94,100,12.86,CA,1726775810
480,westport,41.1415,-73.3579,29.48,48,0,5.14,US,1726775611
481,suarez,2.954,-76.6964,28.04,59,85,3.7,CO,1726775813
482,nova olinda do norte,-3.8881,-59.0942,40.0,21,92,1.24,BR,1726775814
483,karabar,-35.3753,149.2308,4.95,74,0,2.57,AU,1726775816
484,gizo,-8.103,156.8419,27.3,80,99,2.73,SB,1726775817
485,whitefish,48.4111,-114.3376,20.86,45,0,6.17,US,1726775818
486,villa gesell,-37.2639,-56.973,16.72,83,100,8.33,AR,1726775819
487,jabor,5.921,169.6434,27.11,81,90,6.27,MH,1726775820
488,cradock,-32.1642,25.6192,5.55,75,38,4.47,ZA,1726775821
489,kapa'a,22.0752,-159.319,28.18,70,40,7.72,US,1726775822
490,aljezur,37.3191,-8.8033,18.2,78,20,1.99,PT,1726775823
491,i-n-salah,27.1935,2.4607,34.06,26,100,11.68,DZ,1726775824
492,orapa,-21.2833,25.3667,25.8,20,71,2.79,BW,1726775825
493,kattivakkam,13.2167,80.3167,30.05,87,100,4.81,IN,1726775826
494,qarshi,38.8667,65.8,18.9,27,0,4.12,UZ,1726775827
495,enterprise,36.0252,-115.2419,30.46,19,20,3.09,US,1726775828
496,saint croix,17.7397,-64.7388,30.53,75,0,0.0,VI,1726775829
497,isangel,-19.55,169.2667,21.59,74,27,3.76,VU,1726775567
498,kilindoni,-7.9139,39.6668,24.87,81,27,5.42,TZ,1726775831
499,murghob,38.1702,73.9667,6.36,35,13,0.5,TJ,1726775832
500,kone,-21.0595,164.8658,18.7,76,10,0.97,NC,1726775833
501,cockburn town,21.4612,-71.1419,29.03,74,28,4.36,TC,1726775834
502,santa terezinha,-29.9002,-50.0904,18.64,87,12,12.0,BR,1726775836
503,priargunsk,50.3691,119.1012,2.92,52,0,2.07,RU,1726775837
504,nashville,36.1659,-86.7844,33.36,44,0,2.57,US,1726775640
505,khodzha-maston,38.7446,68.627,14.68,37,8,2.69,TJ,1726775839
506,banda aceh,5.5577,95.3222,26.2,77,95,7.18,ID,1726775565
507,onega,63.9061,38.1404,14.07,72,100,4.77,RU,1726775841
508,eyl,7.9803,49.8164,25.73,81,0,8.29,SO,1726775692
509,iguatemi,-23.6803,-54.5611,36.4,25,5,3.02,BR,1726775843
510,nookat,40.2671,72.6207,17.03,40,0,3.09,KG,1726775844
511,northam,51.0333,-4.2167,17.01,86,3,6.08,GB,1726775845
512,gao,16.6362,1.637,34.1,39,5,4.35,ML,1726775846
513,sittwe,20.15,92.9,27.71,88,54,2.17,MM,1726775847
514,daruvar,45.5906,17.225,15.97,82,100,0.77,HR,1726775848
515,panama city beach,30.1766,-85.8055,33.36,50,0,4.12,US,1726775598
516,freetown,8.484,-13.2299,25.99,85,100,3.0,SL,1726775851
517,sassandra,4.95,-6.0833,23.76,92,100,3.1,CI,1726775852
518,budennovsk,44.7839,44.1658,13.55,51,45,3.9,RU,1726775854
519,fort saskatchewan,53.7168,-113.2187,18.95,41,75,8.49,CA,1726775855
520,soe,-9.8607,124.284,19.24,95,73,1.8,ID,1726775856
521,hohhot,40.8106,111.6522,14.16,88,40,4.0,CN,1726775857
522,mugia,43.1041,-9.2179,16.06,89,0,1.87,ES,1726775858
523,san martin de los andes,-40.1604,-71.3486,3.67,98,97,4.3,AR,1726775722
524,oodweyne,9.4092,45.064,28.78,39,78,3.48,SO,1726775860
525,mkushi,-13.6202,29.3939,22.22,25,0,2.28,ZM,1726775861
526,grambling,32.5276,-92.714,31.96,58,5,3.09,US,1726775862
527,sola,-13.8833,167.55,24.58,72,100,6.87,VU,1726775863
528,aldinga beach,-35.2793,138.4604,13.15,77,100,7.31,AU,1726775864
529,santa cruz,-17.8,-63.1667,34.7,43,100,11.83,BO,1726775581
530,karabaglar,38.374,27.1352,23.35,53,0,5.66,TR,1726775866
531,brownfield,33.1812,-102.2744,34.66,30,0,6.65,US,1726775867
532,essaouira,31.5125,-9.77,21.72,83,40,3.6,MA,1726775868
533,outjo,-20.1167,16.15,19.05,22,0,4.86,NA,1726775869
534,palavas-les-flots,43.528,3.9271,17.99,88,0,1.54,FR,1726775870
535,batarasa,8.6617,117.6222,26.77,84,98,1.78,PH,1726775871
536,ambodifotatra,-16.9833,49.85,23.58,75,31,4.84,MG,1726775872
537,terenozek,45.05,64.9833,13.88,46,0,4.18,KZ,1726775873
538,hauterive,46.0901,3.4459,13.56,86,6,1.52,FR,1726775875
539,kapuskasing,49.4169,-82.4331,28.0,34,20,4.63,CA,1726775876
540,boa vista,2.8197,-60.6733,34.99,41,75,4.12,BR,1726775700
541,saint-louis,16.3333,-15.0,32.49,46,63,3.16,SN,1726775879
542,uryupinsk,50.8047,42.0138,13.67,35,99,1.59,RU,1726775880
543,ocean city,39.2776,-74.5746,25.59,77,97,5.18,US,1726775705
544,turek,52.0155,18.5005,16.94,48,2,4.61,PL,1726775882
545,cill airne,52.05,-9.5167,14.5,88,100,1.97,IE,1726775883
546,nova vicosa,-17.8919,-39.3719,24.59,72,15,2.63,BR,1726775884
547,tolanaro,-25.0319,46.9987,23.04,83,0,7.2,MG,1726775885
548,tataouine,32.9297,10.4518,23.48,65,100,6.58,TN,1726775886
549,acapulco de juarez,16.8634,-99.8901,28.7,60,100,2.58,MX,1726775887
550,gandajika,-6.75,23.95,25.04,57,100,1.8,CD,1726775888
551,kaitong,44.8135,123.15,10.61,71,100,1.99,CN,1726775889
552,glenvale,-27.5648,151.9076,10.49,80,95,1.32,AU,1726775890
553,bogande,12.9714,-0.1436,25.81,77,41,4.1,BF,1726775891
554,salinopolis,-0.6136,-47.3561,27.56,78,10,7.26,BR,1726775892
555,brisas barra de suchiate,14.55,-92.2167,30.42,72,18,4.02,MX,1726775893
556,humaita,-7.5061,-63.0208,40.32,19,77,1.19,BR,1726775894
557,sussex,41.1834,-74.6663,27.27,55,0,3.09,US,1726775895
558,sturgis,41.7992,-85.4192,29.82,36,0,2.57,US,1726775729
559,sandnessjoen,66.0217,12.6316,11.06,93,75,3.6,NO,1726775898
560,newman,37.3138,-121.0208,27.81,46,87,2.24,US,1726775899
561,itaituba,-4.2761,-55.9836,38.09,39,20,4.12,BR,1726775900
